{
	"result":{
		"airports":[
		{
			"longitude":31.3997904,
			"latitude":30.1128268,
			"name":"Cairo International Airport",
			"iata_code":"CAI",
			"info":"Cairo International Airport"
		},{
			"longitude": 0.0655004,
			"latitude":51.5029744,
			"name":"London City Airport",
			"iata_code":"LCY",
			"info":"London City Airport"
		},{
			"longitude": 20.9678911,
			"latitude":52.1672369,
			"name":"Warsaw Chopin Airport",
			"iata_code":"WAW",
			"info":"Warsaw Chopin Airport"
		},
		{
			"longitude": 37.9024513,
			"latitude":55.4103069,
			"name":"Domodedovo Moscow Airport",
			"iata_code":"DME",
			"info":"Domodedovo Moscow Airport"
		},
		{
			"longitude": -122.5950942,
			"latitude":45.5897694,
			"name":"Portland International Airport",
			"iata_code":"PDX",
			"info":"Portland International Airport"
		},
		{
			"longitude": 101.7062448,
			"latitude":2.7423553,
			"name":"Kuala Lumpur International Airport",
			"iata_code":"KLIA",
			"info":"Kuala Lumpur International Airport"
		},
		{
			"longitude": 47.9710458,
			"latitude":29.2404414,
			"name":"Kuwait International Airport",
			"iata_code":"KWI",
			"info":"Kuwait International Airport"
		}
		],
		"traffic":[
		{
			"airport_pair":[
			{
				"type":"CAI"
			},
			{
				"type":"LCY"
			}],
			"volume":5
		},
		{
			"airport_pair":[
				{
				"type":"WAW"
			},
			{
				"type":"LCY"
			}
			],
			"volume":10
		},
		{
			"airport_pair":[
			{
				"type":"WAW"
			},
			{
				"type":"CAI"
			}
			],
			"volume":15
		},
		{
			"airport_pair":[
			{
				"type":"DME"
			},
			{
				"type":"PDX"
			}
			],
			"volume":8
		},
		{
			"airport_pair":[
			{
				"type":"CAI"
			},
			{
				"type":"PDX"
			}
			],
			"volume":8
		},
		{
			"airport_pair":[
			{
				"type":"DME"
			},
			{
				"type":"CAI"
			}
			],
			"volume":2
		},
		{
			"airport_pair":[
				{
				"type":"WAW"
			},
			{
				"type":"DME"
			}
			],
			"volume":5
		},
		{
			"airport_pair":[
				{
				"type":"WAW"
			},
			{
				"type":"PDX"
			}
			],
			"volume":5
		},
		{
			"airport_pair":[
				{
				"type":"LCY"
			},
			{
				"type":"DME"
			}
			],
			"volume":5
		},
		{
			"airport_pair":[
				{
				"type":"LCY"
			},
			{
				"type":"PDX"
			}
			],
			"volume":7
		},
		{
			"airport_pair":[
				{
				"type":"KLIA"
			},
			{
				"type":"KWI"
			}
			],
			"volume":2
		},
		{
			"airport_pair":[
				{
				"type":"CAI"
			},
			{
				"type":"KWI"
			}
			],
			"volume":7
		},
		{
			"airport_pair":[
				{
				"type":"CAI"
			},
			{
				"type":"KLIA"
			}
			],
			"volume":5
		},
		{
			"airport_pair":[
				{
				"type":"KLIA"
			},
			{
				"type":"PDX"
			}
			],
			"volume":7
		},
		{
			"airport_pair":[
				{
				"type":"PDX"
			},
			{
				"type":"KWI"
			}
			],
			"volume":10
		},
		{
			"airport_pair":[
				{
				"type":"DME"
			},
			{
				"type":"KWI"
			}
			],
			"volume":3
		},
		{
			"airport_pair":[
				{
				"type":"KLIA"
			},
			{
				"type":"DME"
			}
			],
			"volume":7
		},
		{
			"airport_pair":[
				{
				"type":"LCY"
			},
			{
				"type":"KLIA"
			}
			],
			"volume":5
		},
		{
			"airport_pair":[
				{
				"type":"LCY"
			},
			{
				"type":"KWI"
			}
			],
			"volume":7
		}

			
		]
	}
}